postcode,latitude,longitude,name,state_id
00501,40.922326,-72.637078,Holtsville,NY
00544,40.922326,-72.637078,Holtsville,NY
01001,42.140549,-72.788661,Agawam,MA
01002,42.367092,-72.464571,Amherst,MA
01003,42.369562,-72.63599,Amherst,MA
01004,42.384494,-72.513183,Amherst,MA
01005,42.32916,-72.139465,Barre,MA
01007,42.280267,-72.402056,Belchertown,MA
01008,42.177833,-72.958359,Blandford,MA
01009,42.206092,-72.340486,Bondsville,MA
01010,42.108585,-72.20448,Brimfield,MA
01011,42.294259,-72.952776,Chester,MA
01012,42.392274,-72.825607,Chesterfield,MA
01013,42.161492,-72.667341,Chicopee,MA
01014,42.170731,-72.604842,Chicopee,MA
01020,42.177492,-72.562563,Chicopee,MA
01021,42.170731,-72.604842,Chicopee,MA
01022,42.193392,-72.55436,Chicopee,MA
01026,42.428617,-72.909841,Cummington,MA
01027,42.368303,-72.768839,Easthampton,MA
01028,42.062009,-72.49874,East Longmeadow,MA
01029,42.190904,-73.051661,East Otis,MA
01030,42.189335,-72.79774,Feeding Hills,MA
01031,42.352554,-72.205724,Gilbertville,MA
01032,42.443837,-72.819446,Goshen,MA
01033,42.262285,-72.504086,Granby,MA
01034,42.112748,-72.952003,Granville,MA
01035,42.356804,-72.576613,Hadley,MA
01036,42.067614,-72.417507,Hampden,MA
01037,42.347856,-72.225251,Hardwick,MA
01038,42.387269,-72.643081,Hatfield,MA
01039,42.35641,-72.682127,Haydenville,MA
01040,42.198291,-72.64207,Holyoke,MA
01041,42.170731,-72.604842,Holyoke,MA
01050,42.313427,-72.903677,Huntington,MA
01053,42.353838,-72.704385,Leeds,MA
01054,42.474681,-72.467543,Leverett,MA
01056,42.173276,-72.627038,Ludlow,MA
01057,42.095323,-72.282063,Monson,MA
01059,42.369562,-72.63599,North Amherst,MA
01060,42.415154,-72.76927,Northampton,MA
01061,42.369562,-72.63599,Northampton,MA
01062,42.328838,-72.845227,Florence,MA
01063,42.317939,-72.640234,Northampton,MA
01066,42.406697,-72.633901,North Hatfield,MA
01068,42.346144,-72.058847,Oakham,MA
01069,42.176131,-72.31457,Palmer,MA
01070,42.448984,-72.958397,Plainfield,MA
01071,42.177432,-72.864558,Russell,MA
01072,42.471562,-72.44017,Shutesbury,MA
01073,42.230008,-72.728463,Southampton,MA
01074,42.375998,-72.149388,South Barre,MA
01075,42.24984,-72.58152,South Hadley,MA
01077,42.066644,-72.541205,Southwick,MA
01079,42.192892,-72.329574,Thorndike,MA
01080,42.179805,-72.517813,Three Rivers,MA
01081,42.061948,-72.213598,Wales,MA
01082,42.377471,-72.548549,Ware,MA
01083,42.204027,-72.199439,Warren,MA
01084,42.390303,-72.870857,West Chesterfield,MA
01085,42.14869,-72.501887,Westfield,MA
01086,42.173428,-72.847964,Westfield,MA
01088,42.390583,-72.646894,West Hatfield,MA
01089,42.125793,-72.645334,West Springfield,MA
01090,42.170731,-72.604842,West Springfield,MA
01092,42.202887,-72.229025,West Warren,MA
01093,42.442673,-72.652511,Whately,MA
01094,42.358201,-72.140846,Wheelwright,MA
01095,42.125974,-72.489988,Wilbraham,MA
01096,42.413069,-72.821653,Williamsburg,MA
01097,42.161743,-72.845912,Woronoco,MA
01098,42.40494,-72.896133,Worthington,MA
01101,42.170731,-72.604842,Springfield,MA
01102,42.170731,-72.604842,Springfield,MA
01103,42.103044,-72.590783,Springfield,MA
01104,42.128605,-72.567966,Springfield,MA
01105,42.099793,-72.577732,Springfield,MA
01106,42.049194,-72.567882,Longmeadow,MA
01107,42.126237,-72.586733,Springfield,MA
01108,42.080594,-72.558081,Springfield,MA
01109,42.119293,-72.548981,Springfield,MA
01111,42.170731,-72.604842,Springfield,MA
01114,42.170731,-72.604842,Springfield,MA
01115,42.102894,-72.591633,Springfield,MA
01116,42.170731,-72.604842,Longmeadow,MA
01118,42.093894,-72.523227,Springfield,MA
01119,42.124943,-72.526705,Springfield,MA
01128,42.094616,-72.487229,Springfield,MA
01129,42.124485,-72.489479,Springfield,MA
01133,42.170731,-72.604842,Springfield,MA
01138,42.170731,-72.604842,Springfield,MA
01139,42.170731,-72.604842,Springfield,MA
01144,42.101796,-72.59151,Springfield,MA
01151,42.150593,-72.51278,Indian Orchard,MA
01152,42.170731,-72.604842,Springfield,MA
01199,42.119943,-72.604983,Springfield,MA
01201,42.479475,-73.24807,Pittsfield,MA
01202,42.3929,-73.228483,Pittsfield,MA
01203,42.3929,-73.228483,Pittsfield,MA
01220,42.385595,-73.172166,Adams,MA
01222,42.185969,-73.318695,Ashley Falls,MA
01223,42.3418,-73.103468,Becket,MA
01224,42.3929,-73.228483,Berkshire,MA
01225,42.482125,-73.127483,Cheshire,MA
01226,42.470296,-73.08895,Dalton,MA
01227,42.516145,-73.092852,Dalton,MA
01229,42.279292,-73.343545,Glendale,MA
01230,42.299392,-73.26665,Great Barrington,MA
01235,42.29237,-73.22164,Hinsdale,MA
01236,42.291299,-73.358798,Housatonic,MA
01237,42.487569,-73.235048,Lanesboro,MA
01238,42.369856,-73.267465,Lee,MA
01240,42.459202,-73.219858,Lenox,MA
01242,42.338594,-73.250891,Lenox Dale,MA
01243,42.356088,-73.010448,Middlefield,MA
01244,42.122827,-73.253983,Mill River,MA
01245,42.18669,-73.206498,Monterey,MA
01247,42.426974,-73.18632,North Adams,MA
01252,42.198648,-73.446234,North Egremont,MA
01253,42.213156,-73.090434,Otis,MA
01254,42.233105,-73.238358,Richmond,MA
01255,42.148975,-73.14861,Sandisfield,MA
01256,42.367341,-73.128528,Savoy,MA
01257,42.314564,-73.267694,Sheffield,MA
01258,42.128075,-73.36089,South Egremont,MA
01259,42.198712,-73.278543,Southfield,MA
01260,42.286586,-73.313274,South Lee,MA
01262,42.304604,-73.330001,Stockbridge,MA
01263,42.3929,-73.228483,Stockbridge,MA
01264,42.220001,-73.197865,Tyringham,MA
01266,42.360482,-73.265354,West Stockbridge,MA
01267,42.642075,-73.257699,Williamstown,MA
01270,42.443726,-73.116127,Windsor,MA
01301,42.601335,-72.623619,Greenfield,MA
01302,42.522178,-72.624164,Greenfield,MA
01330,42.562391,-72.738152,Ashfield,MA
01331,42.547302,-72.183903,Athol,MA
01337,42.62706,-72.642888,Bernardston,MA
01338,42.573832,-72.769487,Buckland,MA
01339,42.594252,-72.665507,Charlemont,MA
01340,42.681539,-72.822986,Colrain,MA
01341,42.590824,-72.70976,Conway,MA
01342,42.54723,-72.607679,Deerfield,MA
01343,42.642666,-72.986231,Drury,MA
01344,42.627072,-72.553654,Erving,MA
01346,42.618011,-72.788896,Heath,MA
01347,42.556558,-72.518104,Lake Pleasant,MA
01349,42.621412,-72.705633,Turners Falls,MA
01350,42.721456,-72.976204,Monroe Bridge,MA
01351,42.548107,-72.48693,Montague,MA
01354,42.522178,-72.624164,Northfield,MA
01355,42.518718,-72.534371,New Salem,MA
01360,42.614152,-72.528209,Northfield,MA
01364,42.578325,-72.556589,Orange,MA
01366,42.459632,-72.182962,Petersham,MA
01367,42.683065,-72.715667,Rowe,MA
01368,42.672182,-72.196376,Royalston,MA
01369,42.522178,-72.624164,Shattuckville,MA
01370,42.588812,-72.758781,Shelburne Falls,MA
01373,42.464522,-72.682346,South Deerfield,MA
01375,42.565346,-72.70094,Sunderland,MA
01376,42.654878,-72.718123,Turners Falls,MA
01378,42.667059,-72.339655,Warwick,MA
01379,42.581007,-72.437179,Wendell,MA
01380,42.553431,-72.392694,Wendell Depot,MA
01420,42.583689,-71.816767,Fitchburg,MA
01430,42.654906,-71.920942,Ashburnham,MA
01431,42.446396,-71.459405,Ashby,MA
01432,42.446396,-71.459405,Ayer,MA
01436,42.601427,-72.083838,Baldwinville,MA
01438,42.551681,-72.029434,East Templeton,MA
01440,42.582529,-72.025884,Gardner,MA
01441,42.364807,-71.896868,Westminster,MA
01450,42.446396,-71.459405,Groton,MA
01451,42.500187,-71.575864,Harvard,MA
01452,42.483895,-72.011516,Hubbardston,MA
01453,42.471316,-71.837509,Leominster,MA
01460,42.446396,-71.459405,Littleton,MA
01462,42.583322,-71.752266,Lunenburg,MA
01463,42.446396,-71.459405,Pepperell,MA
01464,42.446396,-71.459405,Shirley,MA
01467,42.487056,-71.613078,Still River,MA
01468,42.555059,-72.072285,Templeton,MA
01469,42.446396,-71.459405,Townsend,MA
01470,42.446396,-71.459405,Groton,MA
01471,42.446396,-71.459405,Groton,MA
01472,42.446396,-71.459405,West Groton,MA
01473,42.549489,-71.913219,Westminster,MA
01474,42.446396,-71.459405,West Townsend,MA
01475,42.661612,-72.047876,Winchendon,MA
01477,42.364807,-71.896868,Winchendon Springs,MA
01501,42.184835,-71.947184,Auburn,MA
01503,42.3129,-71.841656,Berlin,MA
01504,42.114078,-71.799785,Blackstone,MA
01505,42.300037,-71.943458,Boylston,MA
01506,42.19169,-72.105011,Brookfield,MA
01507,42.13277,-71.972627,Charlton,MA
01508,42.109748,-72.079455,Charlton City,MA
01509,42.364807,-71.896868,Charlton Depot,MA